{"MRData":{"xmlns":"","series":"f1","url":"https://api.jolpi.ca/ergast/f1/circuits/","limit":"30","offset":"0","total":"78","CircuitTable":{"Circuits":[{"circuitId":"adelaide","url":"https://en.wikipedia.org/wiki/Adelaide_Street_Circuit","circuitName":"Adelaide Street Circuit","Location":{"lat":"-34.9272","long":"138.617","locality":"Adelaide","country":"Australia"}},{"circuitId":"ain-diab","url":"https://en.wikipedia.org/wiki/Ain-Diab_Circuit","circuitName":"Ain Diab","Location":{"lat":"33.5786","long":"-7.6875","locality":"Casablanca","country":"Morocco"}},{"circuitId":"aintree","url":"https://en.wikipedia.org/wiki/Aintree_Motor_Racing_Circuit","circuitName":"Aintree","Location":{"lat":"53.4769","long":"-2.94056","locality":"Liverpool","country":"UK"}},{"circuitId":"albert_park","url":"https://en.wikipedia.org/wiki/Albert_Park_Circuit","circuitName":"Albert Park Grand Prix Circuit","Location":{"lat":"-37.8497","long":"144.968","locality":"Melbourne","country":"Australia"}},{"circuitId":"americas","url":"https://en.wikipedia.org/wiki/Circuit_of_the_Americas","circuitName":"Circuit of the Americas","Location":{"lat":"30.1328","long":"-97.6411","locality":"Austin","country":"USA"}},{"circuitId":"anderstorp","url":"https://en.wikipedia.org/wiki/Anderstorp_Raceway","circuitName":"Scandinavian Raceway","Location":{"lat":"57.2653","long":"13.6042","locality":"Anderstorp","country":"Sweden"}},{"circuitId":"avus","url":"https://en.wikipedia.org/wiki/AVUS","circuitName":"AVUS","Location":{"lat":"52.4806","long":"13.2514","locality":"Berlin","country":"Germany"}},{"circuitId":"bahrain","url":"https://en.wikipedia.org/wiki/Bahrain_International_Circuit","circuitName":"Bahrain International Circuit","Location":{"lat":"26.0325","long":"50.5106","locality":"Sakhir","country":"Bahrain"}},{"circuitId":"baku","url":"https://en.wikipedia.org/wiki/Baku_City_Circuit","circuitName":"Baku City Circuit","Location":{"lat":"40.3725","long":"49.8533","locality":"Baku","country":"Azerbaijan"}},{"circuitId":"boavista","url":"https://en.wikipedia.org/wiki/Circuito_da_Boavista","circuitName":"Circuito da Boavista","Location":{"lat":"41.1705","long":"-8.67325","locality":"Oporto","country":"Portugal"}},{"circuitId":"brands_hatch","url":"https://en.wikipedia.org/wiki/Brands_Hatch","circuitName":"Brands Hatch","Location":{"lat":"51.3569","long":"0.263056","locality":"Kent","country":"UK"}},{"circuitId":"bremgarten","url":"https://en.wikipedia.org/wiki/Circuit_Bremgarten","circuitName":"Circuit Bremgarten","Location":{"lat":"46.9589","long":"7.40194","locality":"Bern","country":"Switzerland"}},{"circuitId":"buddh","url":"https://en.wikipedia.org/wiki/Buddh_International_Circuit","circuitName":"Buddh International Circuit","Location":{"lat":"28.3487","long":"77.5331","locality":"Uttar Pradesh","country":"India"}},{"circuitId":"catalunya","url":"https://en.wikipedia.org/wiki/Circuit_de_Barcelona-Catalunya","circuitName":"Circuit de Barcelona-Catalunya","Location":{"lat":"41.57","long":"2.26111","locality":"Barcelona","country":"Spain"}},{"circuitId":"charade","url":"https://en.wikipedia.org/wiki/Circuit_de_Charade","circuitName":"Charade Circuit","Location":{"lat":"45.7472","long":"3.03889","locality":"Clermont-Ferrand","country":"France"}},{"circuitId":"dallas","url":"https://en.wikipedia.org/wiki/Fair_Park","circuitName":"Fair Park","Location":{"lat":"32.7774","long":"-96.7587","locality":"Dallas","country":"USA"}},{"circuitId":"detroit","url":"https://en.wikipedia.org/wiki/Detroit_street_circuit","circuitName":"Detroit Street Circuit","Location":{"lat":"42.3298","long":"-83.0401","locality":"Detroit","country":"USA"}},{"circuitId":"dijon","url":"https://en.wikipedia.org/wiki/Dijon-Prenois","circuitName":"Dijon-Prenois","Location":{"lat":"47.3625","long":"4.89913","locality":"Dijon","country":"France"}},{"circuitId":"donington","url":"https://en.wikipedia.org/wiki/Donington_Park","circuitName":"Donington Park","Location":{"lat":"52.8306","long":"-1.37528","locality":"Castle Donington","country":"UK"}},{"circuitId":"essarts","url":"https://en.wikipedia.org/wiki/Rouen-Les-Essarts","circuitName":"Rouen-Les-Essarts","Location":{"lat":"49.3306","long":"1.00458","locality":"Rouen","country":"France"}},{"circuitId":"estoril","url":"https://en.wikipedia.org/wiki/Circuito_do_Estoril","circuitName":"Autódromo do Estoril","Location":{"lat":"38.7506","long":"-9.39417","locality":"Estoril","country":"Portugal"}},{"circuitId":"fuji","url":"https://en.wikipedia.org/wiki/Fuji_Speedway","circuitName":"Fuji Speedway","Location":{"lat":"35.3717","long":"138.927","locality":"Oyama","country":"Japan"}},{"circuitId":"galvez","url":"https://en.wikipedia.org/wiki/Autódromo_Oscar_y_Juan_Gálvez","circuitName":"Autódromo Juan y Oscar Gálvez","Location":{"lat":"-34.6943","long":"-58.4593","locality":"Buenos Aires","country":"Argentina"}},{"circuitId":"george","url":"https://en.wikipedia.org/wiki/Prince_George_Circuit","circuitName":"Prince George Circuit","Location":{"lat":"-33.0486","long":"27.8736","locality":"Eastern Cape Province","country":"South Africa"}},{"circuitId":"hockenheimring","url":"https://en.wikipedia.org/wiki/Hockenheimring","circuitName":"Hockenheimring","Location":{"lat":"49.3278","long":"8.56583","locality":"Hockenheim","country":"Germany"}},{"circuitId":"hungaroring","url":"https://en.wikipedia.org/wiki/Hungaroring","circuitName":"Hungaroring","Location":{"lat":"47.5789","long":"19.2486","locality":"Budapest","country":"Hungary"}},{"circuitId":"imola","url":"https://en.wikipedia.org/wiki/Imola_Circuit","circuitName":"Autodromo Enzo e Dino Ferrari","Location":{"lat":"44.3439","long":"11.7167","locality":"Imola","country":"Italy"}},{"circuitId":"indianapolis","url":"https://en.wikipedia.org/wiki/Indianapolis_Motor_Speedway","circuitName":"Indianapolis Motor Speedway","Location":{"lat":"39.795","long":"-86.2347","locality":"Indianapolis","country":"USA"}},{"circuitId":"interlagos","url":"https://en.wikipedia.org/wiki/Interlagos_Circuit","circuitName":"Autódromo José Carlos Pace","Location":{"lat":"-23.7036","long":"-46.6997","locality":"São Paulo","country":"Brazil"}},{"circuitId":"istanbul","url":"https://en.wikipedia.org/wiki/Istanbul_Park","circuitName":"Istanbul Park","Location":{"lat":"40.9517","long":"29.405","locality":"Istanbul","country":"Turkey"}}]}}}